City_ID,City,Country,Max Temp,Current Description,Lat,Lng,Hotel Name
2,Rikitea,PF,78.04,overcast clouds,-23.1203,-134.9692,People ThankYou
3,Mataura,NZ,66.47,light rain,-46.1927,168.8643,Ellie's Villa
7,Katherine,AU,77.32,broken clouds,-14.4667,132.2667,Pine Tree Motel
8,Victoria,HK,61.25,overcast clouds,22.2855,114.1577,Mini Hotel Central
11,Bredasdorp,ZA,69.28,clear sky,-34.5322,20.0403,Bredasdorp Country Manor
17,Coquimbo,CL,67.44,overcast clouds,-29.9533,-71.3436,Hostel Del Puerto
19,Saldanha,ZA,69.85,few clouds,-33.0117,17.9442,Blue Bay Lodge
21,Cidreira,BR,75.52,few clouds,-30.1811,-50.2056,Hotel Castelo
22,Sao Filipe,CV,76.17,overcast clouds,14.8961,-24.4956,Hotel Xaguate
25,Port Alfred,ZA,77.11,light rain,-33.5906,26.891,The Halyards Hotel
27,East London,ZA,76.14,broken clouds,-33.0153,27.9116,Tu Casa
28,Waingapu,ID,77.49,few clouds,-9.6567,120.2641,Pondok Wisata Elim
32,Bluff,NZ,66.79,overcast clouds,-46.6,168.3333,Bluff Homestead - Guesthouse & Campervan Park
38,Cape Town,ZA,73.11,few clouds,-33.9258,18.4232,Southern Sun Waterfront Cape Town
39,Amli,IN,68.43,clear sky,20.2833,73.0167,Hotel Soubhagya Inn
43,Atuona,PF,78.42,light rain,-9.8,-139.0333,Villa Enata
49,Fort Myers Beach,US,76.05,few clouds,26.452,-81.9481,Lani Kai Island Resort
52,Pisco,PE,78.85,few clouds,-13.7,-76.2167,Hotel San Isidro Oficial
53,San Patricio,US,71.19,clear sky,28.017,-97.5169,"Motel 6 Sinton, TX"
55,Hilo,US,72.63,moderate rain,19.7297,-155.09,Hilo Hawaiian Hotel
59,Mananjary,MG,75.24,light rain,-21.2167,48.3333,Vahiny Lodge
62,Vaini,TO,77.16,scattered clouds,-21.2,-175.2,Keleti Beach Resort
63,Eltham,NZ,65.68,overcast clouds,-39.4292,174.3,Stonewall House Bed & Breakfast
65,Busselton,AU,61.05,broken clouds,-33.65,115.3333,Observatory Guest House
67,Kapaa,US,68.32,broken clouds,22.0752,-159.319,Sheraton Kauai Coconut Beach Resort
71,Nishihara,JP,64.06,broken clouds,26.1842,127.7558,Minshuku Agaihama
72,Hermanus,ZA,72.9,few clouds,-34.4187,19.2345,Misty Waves Boutique Hotel
77,Ngunguru,NZ,70.16,overcast clouds,-35.6167,174.5,Pacific Rendezvous Motel Resort
81,Barillas,GT,79.14,clear sky,15.8036,-91.3158,Hotel y Restaurant Bella Estancia
83,Parakou,BJ,79.29,clear sky,9.3372,2.6303,Benin Metropole Hotel
85,Kavieng,PG,78.49,light rain,-2.5744,150.7967,Nusa Island Retreat
87,Maningrida,AU,77.43,moderate rain,-12.0667,134.2667,Dhukurrdji Lodge
89,Mwinilunga,ZM,63.36,moderate rain,-11.7358,24.4293,Kwakuwahi Lodge
92,Kaitangata,NZ,60.1,light rain,-46.2817,169.8464,Kaitangata Motor Camp
93,Katobu,ID,75.47,overcast clouds,-4.9408,122.5276,La Ode Husein
95,Praia Da Vitoria,PT,61.75,scattered clouds,38.7333,-27.0667,Hotel Branco I
98,Ixtapa,MX,78.03,clear sky,20.7,-105.2,Hotel Plaza Providencia
106,Cabo San Lucas,MX,79.52,clear sky,22.8909,-109.9124,Hotel Tesoro Los Cabos
108,Clarksdale,US,68.16,overcast clouds,34.2001,-90.5709,Americas Best Value Inn & Suites Clarksdale
113,Kareli,IN,62.13,clear sky,22.9167,79.0667,बस्ती तालाब Pond
117,Tarakan,ID,79.97,overcast clouds,3.3,117.6333,RedDoorz Syariah near Taman Berlabuh Tarakan
119,Huarmey,PE,76.05,overcast clouds,-10.0681,-78.1522,Hotel Miramar
120,Otane,NZ,69.01,overcast clouds,-39.8833,176.6333,Ludlow Farmstay
121,Avarua,CK,78.85,overcast clouds,-21.2078,-159.775,Paradise Inn
123,Salalah,OM,73.49,clear sky,17.0151,54.0924,"HAMDAN PLAZA HOTEL SALALAH, an HTG Hotel"
125,Balikpapan,ID,77.99,few clouds,-1.2675,116.8289,ibis Balikpapan
126,Gushikawa,JP,63.99,overcast clouds,26.3544,127.8686,Kirari Guest House
127,Dingle,PH,73.24,overcast clouds,10.9995,122.6711,SEGAYA PROPERTY
129,Moree,AU,77.02,light rain,-29.4667,149.85,Molika Springs Motel
135,Alofi,NU,69.69,clear sky,-19.0595,-169.9187,Taloa Heights
141,Flinders,AU,73.18,light rain,-34.5833,150.8552,Shellharbour Resort & Conference Centre
144,Dwarka,IN,71.73,clear sky,22.2394,68.9678,Hotel Narayan Avezika Comfort
146,Baudh,IN,62.49,clear sky,20.8416,84.3213,Hotel Parijat Palace
148,Saint-Philippe,RE,78.35,moderate rain,-21.3585,55.7679,"Chambres d'hôte ""La Trinité"""
151,Te Anau,NZ,63.45,overcast clouds,-45.4167,167.7167,Kingsgate Hotel Te Anau
152,Tuatapere,NZ,66.81,overcast clouds,-46.1333,167.6833,Ron and Tony's Bed & Breakfast
157,Pak Phanang,TH,78.1,overcast clouds,8.3511,100.202,Green Park Inn Hotel
160,Kruisfontein,ZA,75.88,overcast clouds,-34.0033,24.7314,Oyster Bay House Rental
163,Ternate,ID,79.27,overcast clouds,0.8,127.4,Sahid Bela Ternate Hotel
165,Ribeira Grande,PT,63.0,few clouds,38.5167,-28.7,Quinta da Meia Eira
170,San Cristobal,VE,77.18,overcast clouds,7.7669,-72.225,Posada Villaven C.A.
173,Lorengau,PG,78.78,overcast clouds,-2.0226,147.2712,Lorengau Harbourside Hotel
175,Ponta Do Sol,PT,67.01,clear sky,32.6667,-17.1,Hotel do Campo
176,Guerrero Negro,MX,63.41,overcast clouds,27.9769,-114.0611,"Casa Laguna, Bed & Breakfast"
178,Castro,BR,79.14,clear sky,-24.7911,-50.0119,CHACARA BAILLY
179,Kampot,KH,78.85,scattered clouds,10.6167,104.1833,Two Moons Hotel
180,Rincon,US,68.18,scattered clouds,32.296,-81.2354,Days Inn Rincon
181,Port Blair,IN,73.44,mist,11.6667,92.75,"Welcomhotel By ITC Hotels, Bay Island, Port Blair"
182,Victor Harbor,AU,61.81,broken clouds,-35.5667,138.6167,McCracken Country Club
183,Carnarvon,AU,77.07,overcast clouds,-24.8667,113.6333,Hospitality Carnarvon
186,Yaring,TH,76.33,scattered clouds,6.8662,101.3689,สถานที่จัดงานแต่ง SOFEE & DORN
187,Kupang,ID,79.52,clear sky,-10.1667,123.5833,Hotel On The Rock by Prasanthi
191,Omboue,GA,78.8,light rain,-1.5746,9.2618,Hotel Olako
192,Conceicao Do Mato Dentro,BR,76.96,overcast clouds,-19.0372,-43.425,Hotel Vista Inn
196,Meulaboh,ID,75.45,overcast clouds,4.1363,96.1285,Kost Pria
198,Talcahuano,CL,63.27,clear sky,-36.7167,-73.1167,departamento comodo
202,Pamekasan,ID,77.34,overcast clouds,-7.1568,113.4746,OYO 3027 Griya Temenggungan Syariah
211,Constitucion,CL,68.13,clear sky,-35.3333,-72.4167,Hotel Boutique Las Azucenas
217,Kahului,US,70.97,few clouds,20.8947,-156.47,Maui Seaside Hotel
220,Magnolia,US,67.68,overcast clouds,33.2671,-93.2393,Budget Inn
224,Umtata,ZA,73.96,broken clouds,-31.5889,28.7844,LLZZ Boutique Lodge
225,Whitianga,NZ,69.03,overcast clouds,-36.8333,175.7,Beachside Resort Whitianga
227,San Policarpo,PH,78.13,overcast clouds,12.1791,125.5072,Agapita M. Nicart
233,Port Macquarie,AU,75.88,overcast clouds,-31.4333,152.9167,Rydges Port Macquarie
238,Falefa,WS,71.49,light rain,-13.887,-171.588,Leuaina Beach Resort and Spa
241,Lompoc,US,65.08,clear sky,34.6391,-120.4579,"Holiday Inn Express Lompoc, an IHG Hotel"
249,Bengkulu,ID,73.27,overcast clouds,-3.8004,102.2655,Grage Hotel Bengkulu
251,Labuhan,ID,77.41,overcast clouds,-6.8844,112.2051,DoubleFAG
254,Hambantota,LK,77.34,scattered clouds,6.1241,81.1185,Bungalow 63
259,Jiwani,PK,73.6,clear sky,25.05,61.7417,Al Mumtaz Transport Jiwani
261,Pocoes,BR,78.15,broken clouds,-14.5297,-40.3653,Poções Palace Hotel
264,Isangel,VU,77.11,overcast clouds,-19.55,169.2667,Tanna Lodge
266,Port Said,EG,61.21,clear sky,31.2565,32.2841,Aracan Hotel
270,Waycross,US,68.99,clear sky,31.2136,-82.354,Super 8 by Wyndham Waycross GA
274,Yulara,AU,67.84,overcast clouds,-25.2406,130.9889,Desert Gardens Hotel - Ayers Rock Resort
276,Lebu,CL,65.59,clear sky,-37.6167,-73.65,Hostal Las Lilas
280,Kangundo,KE,72.5,light rain,-1.2979,37.3471,Kmercy Suites
282,Ancud,CL,67.23,overcast clouds,-41.8697,-73.8203,Hotel Arena Gruesa
286,Areosa,PT,61.36,clear sky,41.7178,-8.8571,Hotel Flôr de Sal
287,Kindu,CD,72.16,overcast clouds,-2.95,25.95,Résidence Okanda
290,Coihaique,CL,69.75,broken clouds,-45.5752,-72.0662,Diego De Almagro Coyhaique
294,Lubango,AO,60.58,overcast clouds,-14.9172,13.4925,Hotel Serra da Chela
295,Birnin Kebbi,NG,72.09,clear sky,12.4539,4.1975,Saffar Guest Inn Ltd
299,Bambanglipuro,ID,62.6,overcast clouds,-7.95,110.2833,Puri Brata
307,Basco,PH,73.09,overcast clouds,20.4487,121.9702,Nathaniel's Lodge
309,Kontagora,NG,77.49,clear sky,10.3999,5.4695,Queens Guest Inn
315,Kailua,US,75.15,clear sky,21.4022,-157.7394,Sheffield House Bed & Breakfast
320,Pirawa,IN,65.25,clear sky,24.1551,76.0273,सामुदायिक भवन सराय पिड़ावा
331,Kuching,MY,75.42,scattered clouds,1.55,110.3333,The Ranee Boutique Suites
337,Necochea,AR,79.03,clear sky,-38.5473,-58.7368,dyd -mar Hotel
338,Kismayo,SO,78.87,overcast clouds,-0.3582,42.5454,Agan-Hotel
342,Antsohihy,MG,77.23,scattered clouds,-14.8796,47.9875,Hotel de Ville
344,Mugumu,TZ,60.35,light rain,-1.85,34.7,Lemala Mara
349,Mudon,MM,65.46,broken clouds,16.2578,97.7164,Motel Mudon
351,San Fernando,PH,77.02,overcast clouds,15.0286,120.6898,Maharlika Hostel
356,Hokitika,NZ,63.23,overcast clouds,-42.7167,170.9667,Beachfront Hotel Hokitika
358,Lavumisa,SZ,72.3,clear sky,-27.31,31.892,ROADSIDE B&B
359,Cockburn Town,TC,75.2,clear sky,21.4612,-71.1419,Osprey Beach Hotel
365,Villa Guerrero,MX,74.5,clear sky,18.8667,-99.65,Ixtapan de la Sal Marriott Hotel & Spa
377,Los Llanos De Aridane,ES,70.12,broken clouds,28.6585,-17.9182,Valle Aridane
379,Kyaukse,MM,61.25,clear sky,21.6,96.1333,Shwe Thit Sar Guesthouse
381,Pangkalanbuun,ID,73.6,broken clouds,-2.6833,111.6167,Grand Kecubung Hotel
384,Camacha,PT,63.54,few clouds,33.0833,-16.3333,Hotel Porto Santo & Spa
385,Hirara,JP,68.65,overcast clouds,24.8,125.2833,Hotel Atoll Emerald Miyakojima
387,Harlingen,US,73.33,overcast clouds,26.1906,-97.6961,Courtyard by Marriott Harlingen
389,Arlit,NE,65.73,clear sky,18.7369,7.3853,Case de Passage De la Prefecture
391,Numan,NG,75.6,clear sky,9.4667,12.0333,Zangun Motel
392,Rumonge,BI,69.64,overcast clouds,-3.9736,29.4386,Kwetu Guest House
399,Mushabani,IN,64.17,clear sky,22.5167,86.45,"ZEE NEWS REPOTER,HOME"
400,Pontianak,ID,75.18,mist,-0.0333,109.3333,Aston Pontianak Hotel & Convention Center
402,Phuket,TH,75.42,few clouds,8.0,98.25,The Surin
405,Sinnamary,GF,79.54,overcast clouds,5.3833,-52.95,ALETHEIA Appartement Sinnamary
408,Finote Selam,ET,66.88,broken clouds,10.7,37.2667,Kidanemihiret vilage with Anduamlak Alelign(ONEGOD)
413,Vila Franca Do Campo,PT,62.2,overcast clouds,37.7167,-25.4333,Pestana Bahia Praia
415,Dunedin,NZ,64.15,light rain,-45.8742,170.5036,Scenic Hotel Southern Cross
417,Rawson,AR,78.62,broken clouds,-43.3002,-65.1023,Hosteria Sampedro
418,Liku,ID,74.23,overcast clouds,-0.7275,119.8922,Wahyu
419,Maxixe,MZ,78.62,few clouds,-23.8597,35.3472,Oceano
420,Noumea,NC,73.38,overcast clouds,-22.2763,166.4572,Hôtel Le Lagon
422,Ulladulla,AU,70.77,overcast clouds,-35.35,150.4667,Sandpiper Motel
424,Camapua,BR,73.53,overcast clouds,-19.5314,-54.0439,Comercial Estrela
434,Kieta,PG,79.12,overcast clouds,-6.2167,155.6333,Uruna Bay Retreat
440,Maldonado,UY,76.39,clear sky,-34.6667,-54.9167,La Cimarrona
442,Bongouanou,CI,79.21,few clouds,6.6486,-4.1992,Résidence KABRAN EHIA ELISABETH
445,Hobyo,SO,78.08,overcast clouds,5.3505,48.5268,Halane Hotel and Restaurent
447,Kalmunai,LK,73.99,clear sky,7.4167,81.8167,VS Villa
449,Pathein,MM,62.19,clear sky,16.7833,94.7333,New Pammawaddy Hotel
452,Batemans Bay,AU,73.2,overcast clouds,-35.7167,150.1833,Batemans Bay Marina Resort
459,San Quintin,MX,60.75,few clouds,30.4833,-115.95,Don Eddie's Landing
461,Kiama,AU,73.38,light rain,-34.6833,150.8667,The Sebel Kiama Harbourside
466,Bubaque,GW,79.16,clear sky,11.2833,-15.8333,"Casa Dora, Bubaque"
470,Quang Ngai,VN,69.69,overcast clouds,15.1167,108.8,Central Hotel
473,Inhambane,MZ,78.78,few clouds,-23.865,35.3833,Oceano
475,Saint-Joseph,RE,79.16,moderate rain,-21.3667,55.6167,"""Plantation Bed and Breakfast"
476,Castilho,BR,76.26,light rain,-20.8722,-51.4875,D S Oliveira Hotel
480,Matara,LK,72.46,clear sky,5.9485,80.5353,Amaloh Boutique Resort
488,Manokwari,ID,77.52,overcast clouds,-0.8667,134.0833,Swiss Belhotel Manokwari
489,Paracale,PH,74.98,moderate rain,14.2804,122.7881,Waling Waling center Paracale
494,Ewa Beach,US,76.01,clear sky,21.3156,-158.0072,Uncle Junior Robert
495,Hays,US,64.53,overcast clouds,30.0502,-98.0336,Sinya on Lone Man Creek
501,Itoman,JP,64.78,broken clouds,26.1247,127.6694,Southern Beach Hotel & Resort Okinawa
502,Kununurra,AU,78.78,broken clouds,-15.7667,128.7333,Hotel Kununurra
506,Odweyne,SO,66.94,overcast clouds,9.4092,45.064,Eng Hiirey House
508,Mbaiki,CF,75.36,few clouds,3.8678,17.9892,Motel MBM
509,Menongue,AO,66.65,overcast clouds,-14.6585,17.691,Ritz Lauca
510,Dilla,ET,68.49,overcast clouds,6.41,38.31,Afomiya Pension
514,Stephenville,US,65.25,broken clouds,32.2207,-98.2023,La Quinta Inn & Suites by Wyndham Stephenville
515,Bichena,ET,61.66,scattered clouds,10.45,38.2,Dagm Tesfa Hotel ዳግም ተስፋ ሆቴል
516,Hualmay,PE,75.85,scattered clouds,-11.0964,-77.6139,Hotel Villa Kitzia Huacho
521,Wanning,CN,67.53,overcast clouds,18.8003,110.3967,Paradise Hotel
530,Coromandel,BR,74.89,overcast clouds,-18.4733,-47.2003,Hotel Dona Adélia
532,Sorong,ID,79.61,overcast clouds,-0.8833,131.25,Waigo Splash Hotel
535,Marawi,PH,65.64,overcast clouds,7.9986,124.2928,Derogongan Residence
537,Port Moresby,PG,72.82,light rain,-9.4431,147.1797,Lamana Hotel (Port Moresby)
540,Trincomalee,LK,77.56,clear sky,8.5711,81.2335,Welcombe Hotel
542,Sonoita,MX,64.53,overcast clouds,31.85,-112.8333,Santa Ana
544,Ouesso,CG,78.55,overcast clouds,1.6136,16.0517,ABENIE Hotel
547,Doha,QA,66.18,clear sky,25.2867,51.5333,Movenpick Hotel Doha
548,Sibiti,CG,70.92,light rain,-3.6819,13.3499,"LE PAPYRUS (hôtel, bar et restaurant)"
549,New Albany,US,61.92,overcast clouds,38.2856,-85.8241,Hampton Inn New Albany Louisville West
557,Pemangkat,ID,76.91,light rain,1.1667,108.9667,Ramah Kost KITA
558,Nago,JP,64.83,overcast clouds,26.5881,127.9761,Hotel Yugaf Inn Okinawa
564,Osmena,PH,79.29,overcast clouds,10.5208,119.9258,Arjemarkyza Lodge
565,Banyo,CM,71.04,scattered clouds,6.75,11.8167,Motel JOMBA
567,Lata,PT,61.21,clear sky,40.1629,-8.3327,Casa Maquia
573,Zambezi,ZM,68.45,overcast clouds,-13.5432,23.1047,Royal Kutachika Lodge
579,Shakawe,BW,66.27,broken clouds,-18.3667,21.85,Ditlhapi Guest House
582,Rio Pardo De Minas,BR,78.96,overcast clouds,-15.6097,-42.5397,Hotel Oásis Cidade Alta
587,Destin,US,70.65,clear sky,30.3935,-86.4958,The Inn on Destin Harbor
595,Chilca,PE,77.16,overcast clouds,-12.5211,-76.7372,Playa Punta Yaya - Las Salinas
599,Teguise,ES,64.62,clear sky,29.0605,-13.564,B&B La Casona de Nazaret
600,Okato,NZ,67.91,overcast clouds,-39.2,173.8833,Goodin Country Garden
602,Las Cruces,US,63.55,clear sky,32.3123,-106.7783,Days End Lodge
605,Duartina,BR,74.84,overcast clouds,-22.4144,-49.4039,Hotel Mattos Guimaro
606,Chuy,UY,75.25,clear sky,-33.6971,-53.4616,Nuevo Hotel Plaza
608,Valparaiso,CL,67.64,clear sky,-33.0393,-71.6273,Hotel Ultramar
611,Port Shepstone,ZA,77.76,overcast clouds,-30.7414,30.455,My Den Beachfront Bed and Breakfast | Self-Catering
612,Qui Nhon,VN,71.98,overcast clouds,13.7667,109.2333,Hoang Yen Canary Hotel
617,Galle,LK,74.08,clear sky,6.0367,80.217,Amangalla
619,Victoria Point,AU,79.92,overcast clouds,-27.5833,153.3,Bay Retreat Motel
620,Awassa,ET,67.19,overcast clouds,7.05,38.4667,ፓራዳይስ ሆቴል ሀዋሳ / Paradise Hotel Hawassa
624,Ampanihy,MG,74.21,clear sky,-24.7,44.75,Angora Hotel
628,Antofagasta,CL,72.21,clear sky,-23.65,-70.4,"Holiday Inn Express Antofagasta, an IHG Hotel"
629,Hinatuan,PH,75.24,overcast clouds,8.3722,126.3342,Villa Juanita Hinatuan
632,Sambava,MG,77.86,scattered clouds,-14.2667,50.1667,Melrose
635,Sulangan,PH,79.93,overcast clouds,11.1373,123.7228,Maia's Beach Resort
638,Marsh Harbour,BS,68.22,overcast clouds,26.5412,-77.0636,Abaco Beach Resort
645,Charters Towers,AU,77.52,overcast clouds,-20.1,146.2667,Cattleman's Rest Motor Inn
648,Honiara,SB,78.17,heavy intensity rain,-9.4333,159.95,Heritage Park Hotel
653,Farafangana,MG,75.52,clear sky,-22.8167,47.8333,Miarina
658,Key West,US,75.2,broken clouds,24.5557,-81.7826,Fairfield Inn & Suites by Marriott Key West
660,Taltal,CL,69.33,few clouds,-25.4,-70.4833,Residencial Karime
666,Vanimo,PG,76.37,moderate rain,-2.6741,141.3028,Vahmoneh Lodge Vanimo
671,Talladega,US,66.69,clear sky,33.4359,-86.1058,"Holiday Inn Express & Suites Talladega, an IHG Hotel"
676,Iralaya,HN,79.9,clear sky,15.0,-83.2333,Iglesia morava renovada
678,Byron Bay,AU,79.88,overcast clouds,-28.65,153.6167,Backpackers Inn
680,Miri,MY,77.14,scattered clouds,4.4148,114.0089,"Mega Hotel, Miri"
681,Sur,OM,73.53,clear sky,22.5667,59.5289,Sur Plaza Hotel
686,Kutum,SD,60.82,clear sky,14.2,24.6667,Dibbo areaمنطقة دبو
687,Am Timan,TD,78.06,clear sky,11.0297,20.2827,Palais du chef Canton Salamt
688,Bosaso,SO,76.87,broken clouds,11.2842,49.1816,Red Sea Hotel
696,Ahipara,NZ,69.53,overcast clouds,-35.1667,173.1667,Ahipara Holiday Park
699,Cayenne,GF,78.84,light rain,4.9333,-52.3333,Hôtel Le Dronmi
